,City,Cloudiness,Country,Date,Humidity,Lat,Lng,Max Temp,Wind Speed
0,ribeira grande,20.0,PT,1535607872.0,97.0,38.52,-28.7,76.1,15.99
1,churapcha,88.0,RU,1535607873.0,84.0,62.0,132.43,59.99,3.58
2,constitucion,36.0,MX,1535607873.0,95.0,23.99,-104.67,55.22,3.02
3,tautira,40.0,PF,1535607000.0,83.0,-17.73,-149.15,73.4,4.7
5,prince rupert,75.0,CA,1535605320.0,100.0,54.32,-130.32,53.6,2.24
6,bredasdorp,80.0,ZA,1535605200.0,72.0,-34.53,20.04,60.8,8.05
8,atambua,8.0,ID,1535607874.0,78.0,-9.11,124.89,83.93,8.39
9,saint-augustin,56.0,FR,1535605200.0,93.0,44.83,-0.61,55.4,3.36
10,yellowknife,40.0,CA,1535605200.0,87.0,62.45,-114.38,44.6,7.72
12,bosaso,0.0,SO,1535607862.0,85.0,11.28,49.18,87.71,8.95
13,ushuaia,90.0,AR,1535605200.0,89.0,-54.81,-68.31,32.0,20.8
14,mitu,0.0,IR,1535607876.0,23.0,36.2,46.09,82.04,2.91
15,port alfred,12.0,ZA,1535607876.0,94.0,-33.59,26.89,61.79,3.02
17,qaanaaq,0.0,GL,1535607877.0,100.0,77.48,-69.36,29.84,4.36
18,hamilton,40.0,BM,1535604900.0,78.0,32.3,-64.78,80.6,4.7
19,usinsk,0.0,RU,1535607877.0,88.0,66.0,57.56,51.71,4.36
20,east london,0.0,ZA,1535606640.0,76.0,-33.02,27.91,55.4,4.7
22,castro,0.0,CL,1535607878.0,94.0,-42.48,-73.76,39.92,9.17
23,tela,20.0,HN,1535605200.0,88.0,15.78,-87.45,77.0,2.46
24,hobart,0.0,AU,1535605200.0,47.0,-42.88,147.33,57.2,9.17
25,sao joao da barra,48.0,BR,1535607879.0,97.0,-21.64,-41.05,73.22,10.96
26,sandwick,90.0,GB,1535604600.0,100.0,54.57,-2.89,41.0,4.7
28,vaini,92.0,IN,1535607880.0,99.0,15.34,74.49,72.14,8.5
29,albany,90.0,US,1535605320.0,87.0,42.65,-73.75,73.94,6.93
30,jamestown,92.0,AU,1535607881.0,44.0,-33.21,138.6,62.06,23.6
33,rikitea,92.0,PF,1535607881.0,100.0,-23.12,-134.97,67.1,24.83
34,araouane,20.0,ML,1535607882.0,55.0,18.9,-3.53,80.87,7.94
35,salalah,90.0,OM,1535604600.0,100.0,17.01,54.1,73.4,3.36
36,busselton,44.0,AU,1535607882.0,100.0,-33.64,115.35,58.64,17.0
37,victor harbor,75.0,AU,1535607000.0,87.0,-35.55,138.62,55.4,5.82
39,joshimath,20.0,IN,1535607883.0,100.0,30.57,79.57,40.73,0.11
40,port elizabeth,1.0,US,1535604960.0,87.0,39.31,-74.98,82.94,4.7
41,thompson,75.0,CA,1535605200.0,81.0,55.74,-97.86,51.8,4.7
42,mataura,0.0,NZ,1535607884.0,88.0,-46.19,168.86,47.66,4.14
43,saint-paul,0.0,FR,1535605200.0,93.0,45.22,1.9,55.4,4.7
44,new norfolk,0.0,AU,1535607000.0,41.0,-42.78,147.06,59.0,9.17
45,saskylakh,56.0,RU,1535607885.0,83.0,71.97,114.09,59.18,13.98
47,carnarvon,0.0,ZA,1535607885.0,39.0,-30.97,22.13,45.86,9.73
48,saiha,88.0,IN,1535607886.0,79.0,22.49,92.98,80.24,2.46
49,sinnamary,0.0,GF,1535607886.0,99.0,5.38,-52.96,80.87,10.51
50,chepareria,64.0,KE,1535607886.0,98.0,1.32,35.2,59.45,1.68
51,haines junction,0.0,CA,1535607887.0,92.0,60.75,-137.51,37.58,2.13
52,san jose,36.0,PH,1535607418.0,83.0,15.79,120.99,84.11,2.91
53,pilar,75.0,AR,1535605200.0,88.0,-34.46,-58.91,66.2,2.24
54,caravelas,80.0,BR,1535607887.0,100.0,-17.73,-39.27,74.93,14.09
55,port lincoln,0.0,AU,1535607888.0,95.0,-34.72,135.86,58.37,18.12
56,pacific grove,1.0,US,1535607300.0,82.0,36.62,-121.92,62.96,2.13
57,punta arenas,40.0,CL,1535605200.0,100.0,-53.16,-70.91,35.6,24.16
58,lebu,32.0,ET,1535607888.0,93.0,8.96,38.73,59.63,3.91
59,pathein,56.0,MM,1535607889.0,86.0,16.78,94.73,83.12,12.64
60,faanui,24.0,PF,1535607889.0,100.0,-16.48,-151.75,77.9,25.72
61,victoria,75.0,BN,1535607000.0,62.0,5.28,115.24,91.4,3.36
62,baymak,0.0,RU,1535607890.0,60.0,52.6,58.31,68.54,3.58
63,vestmannaeyjar,8.0,IS,1535607890.0,100.0,63.44,-20.27,39.92,3.36
64,bethel,90.0,US,1535607120.0,92.0,60.79,-161.76,51.98,24.16
66,awjilah,0.0,LY,1535607891.0,55.0,29.14,21.3,81.5,10.4
67,launceston,80.0,AU,1535607000.0,61.0,-41.43,147.14,50.0,13.87
68,mildura,92.0,AU,1535607892.0,45.0,-34.18,142.16,63.59,21.03
69,mahebourg,75.0,MU,1535605200.0,64.0,-20.41,57.7,73.4,10.29
70,clyde river,90.0,CA,1535607120.0,100.0,70.47,-68.59,33.8,9.17
73,gizo,20.0,IL,1535606400.0,65.0,31.8,34.94,80.6,3.36
74,naze,75.0,NG,1535605200.0,100.0,5.43,7.07,73.4,2.91
75,provideniya,90.0,RU,1535605200.0,70.0,64.42,-173.23,48.2,17.9
76,atuona,0.0,PF,1535607894.0,100.0,-9.8,-139.03,78.89,18.79
77,goderich,44.0,CA,1535607894.0,93.0,43.74,-81.71,62.6,10.07
78,cayenne,0.0,GF,1535607000.0,100.0,4.94,-52.33,75.2,6.93
79,los llanos de aridane,0.0,ES,1535605200.0,68.0,28.66,-17.92,71.6,16.11
81,arraial do cabo,44.0,BR,1535607895.0,97.0,-22.97,-42.02,68.09,13.42
82,high rock,64.0,BS,1535607895.0,98.0,26.63,-78.28,84.47,13.65
83,dunedin,8.0,NZ,1535607896.0,87.0,-45.87,170.5,46.04,2.57
84,vasai,76.0,IN,1535607896.0,74.0,22.43,69.93,83.3,12.53
85,yenagoa,88.0,NG,1535607896.0,98.0,4.92,6.26,74.03,3.91
86,feicheng,92.0,CN,1535607897.0,76.0,36.18,116.77,82.22,8.16
87,calvia,20.0,ES,1535605200.0,88.0,39.57,2.51,73.4,3.36
88,nikolskoye,90.0,RU,1535605200.0,100.0,59.7,30.79,59.0,6.71
89,sevierville,75.0,US,1535604780.0,81.0,35.87,-83.56,78.08,8.05
90,chirongui,75.0,YT,1535605200.0,83.0,-12.93,45.15,77.0,3.36
91,cidreira,56.0,BR,1535607898.0,93.0,-30.17,-50.22,60.44,7.38
92,necochea,32.0,AR,1535607898.0,93.0,-38.55,-58.74,45.59,12.64
93,bluff,0.0,AU,1535607899.0,21.0,-23.58,149.07,78.8,4.47
94,northam,75.0,GB,1535604600.0,93.0,51.04,-4.21,50.0,3.36
95,cape town,0.0,ZA,1535605200.0,81.0,-33.93,18.42,53.6,8.05
96,torbay,20.0,CA,1535605200.0,87.0,47.66,-52.73,50.0,6.93
98,drayton valley,92.0,CA,1535607900.0,97.0,53.22,-114.98,48.47,6.38
99,nome,1.0,US,1535606100.0,86.0,30.04,-94.42,78.08,4.59
101,ust-omchug,64.0,RU,1535607901.0,42.0,61.13,149.63,58.91,3.47
102,noumea,0.0,NC,1535605200.0,56.0,-22.28,166.46,73.4,9.17
103,vao,80.0,EE,1535607901.0,99.0,59.1,26.19,59.45,3.02
104,chokurdakh,0.0,RU,1535607902.0,49.0,70.62,147.9,63.86,15.99
105,cabo san lucas,40.0,MX,1535604000.0,74.0,22.89,-109.91,82.4,10.29
106,maragogi,92.0,BR,1535607902.0,97.0,-9.01,-35.22,72.5,9.62
108,avarua,40.0,CK,1535605200.0,56.0,-21.21,-159.78,71.6,16.11
109,hilo,90.0,US,1535605560.0,71.0,19.71,-155.08,78.08,11.41
111,nicoya,0.0,CR,1535605200.0,74.0,10.15,-85.45,78.8,6.93
112,georgetown,0.0,GY,1535605200.0,100.0,6.8,-58.16,73.4,2.24
113,kapaa,75.0,US,1535604960.0,81.0,22.08,-159.32,80.06,18.34
114,arman,40.0,RU,1535605200.0,59.0,59.7,150.17,66.2,13.42
115,airai,44.0,TL,1535607905.0,44.0,-8.93,125.41,83.84,1.12
116,laguna,36.0,MX,1535607905.0,85.0,27.52,-110.01,80.69,2.35
117,lakes entrance,76.0,AU,1535607905.0,81.0,-37.88,147.99,57.74,4.03
118,ostrov,90.0,RU,1535605200.0,93.0,57.34,28.36,59.0,2.24
119,dikson,36.0,RU,1535607906.0,100.0,73.51,80.55,40.37,20.13
120,longyearbyen,75.0,NO,1535602800.0,70.0,78.22,15.63,46.4,12.75
121,saint-philippe,90.0,CA,1535606100.0,83.0,45.36,-73.48,74.84,17.22
122,kaitangata,12.0,NZ,1535607907.0,83.0,-46.28,169.85,49.1,3.36
123,mantua,0.0,IT,1535605200.0,77.0,45.16,10.79,64.4,4.7
124,bambous virieux,75.0,MU,1535605200.0,64.0,-20.34,57.76,73.4,10.29
125,aripuana,12.0,BR,1535607908.0,94.0,-9.17,-60.63,73.49,2.01
126,jutai,0.0,BR,1535607908.0,94.0,-1.71,-47.89,73.85,3.91
127,san patricio,0.0,PY,1535607909.0,49.0,-26.98,-56.83,78.53,6.6
128,trairi,8.0,BR,1535607909.0,99.0,-3.28,-39.27,79.34,23.71
130,saint-felicien,75.0,CA,1535605200.0,93.0,48.65,-72.45,53.6,10.29
131,san cristobal,75.0,EC,1535605200.0,87.0,-0.39,-78.55,50.0,1.12
132,winnemucca,1.0,US,1535604960.0,4.0,40.97,-117.74,71.96,3.36
133,sitka,0.0,US,1535607910.0,83.0,37.17,-99.65,73.13,11.18
134,santa maria da vitoria,0.0,BR,1535607911.0,70.0,-13.39,-44.19,63.59,9.4
135,lewiston,1.0,US,1535604960.0,39.0,46.42,-117.02,69.98,6.93
136,sakaiminato,75.0,JP,1535605200.0,49.0,35.55,133.23,89.6,11.41
137,onoda,75.0,JP,1535605320.0,79.0,34.0,131.18,86.0,9.17
138,luderitz,8.0,NA,1535607912.0,75.0,-26.65,15.16,54.77,4.47
139,hermanus,32.0,ZA,1535607912.0,98.0,-34.42,19.24,44.78,4.36
140,vardo,1.0,US,1535606100.0,67.0,39.62,-77.74,82.04,8.05
141,kodiak,1.0,US,1535604780.0,83.0,39.95,-94.76,66.02,5.82
142,danville,1.0,US,1535606160.0,100.0,36.59,-79.4,73.94,5.14
143,esmeraldas,0.0,BR,1535605200.0,82.0,-19.76,-44.31,59.0,2.24
145,saint george,0.0,GR,1535604600.0,68.0,39.45,22.34,68.0,5.82
146,homer,90.0,US,1535604780.0,79.0,59.64,-151.54,55.04,4.7
147,haimen,68.0,CN,1535607971.0,68.0,31.87,121.18,89.96,16.44
149,leh,0.0,IN,1535607916.0,43.0,34.16,77.58,49.82,1.45
150,tahe,0.0,CN,1535607916.0,54.0,52.34,124.71,71.87,3.91
151,porto novo,0.0,BR,1535605200.0,82.0,-23.68,-45.44,60.8,2.24
153,ostrovskoye,36.0,RU,1535607917.0,54.0,57.81,42.24,73.85,8.72
154,sobolevo,0.0,RU,1535607917.0,100.0,54.43,31.9,61.34,6.71
155,pevek,20.0,RU,1535607918.0,92.0,69.7,170.27,46.94,8.05
157,lavrentiya,64.0,RU,1535607918.0,90.0,65.58,-170.99,46.67,15.66
158,tuatapere,20.0,NZ,1535607918.0,100.0,-46.13,167.69,47.57,4.7
159,soni,32.0,TZ,1535607919.0,69.0,-4.85,38.37,69.17,3.13
161,hobyo,36.0,SO,1535607919.0,73.0,5.35,48.53,77.45,14.99
162,vitim,76.0,RU,1535607919.0,60.0,59.44,112.57,70.52,6.93
163,faya,5.0,SA,1535605200.0,60.0,18.39,42.45,73.4,4.7
164,srandakan,48.0,ID,1535607920.0,59.0,-7.94,110.25,82.67,6.71
165,geraldton,5.0,CA,1535605200.0,93.0,49.72,-86.95,42.8,2.24
166,ponta do sol,0.0,BR,1535607921.0,85.0,-20.63,-46.0,58.19,7.72
167,bathsheba,40.0,BB,1535605200.0,88.0,13.22,-59.52,80.6,16.11
168,troitsko-pechorsk,0.0,RU,1535607921.0,64.0,62.71,56.19,56.21,4.36
169,stockbridge,40.0,US,1535604960.0,84.0,33.54,-84.23,73.04,9.17
170,sangar,0.0,RU,1535607922.0,60.0,63.92,127.47,63.5,5.59
171,coolum beach,0.0,AU,1535607922.0,66.0,-26.53,153.09,67.46,3.47
172,chimbote,12.0,PE,1535607922.0,100.0,-9.08,-78.59,58.1,5.03
173,ancud,0.0,CL,1535607923.0,82.0,-41.87,-73.83,40.19,7.94
174,touros,48.0,BR,1535607923.0,87.0,-5.2,-35.46,73.76,13.42
175,rio grande,92.0,BR,1535607923.0,93.0,-32.03,-52.1,58.19,4.7
176,hithadhoo,92.0,MV,1535607923.0,100.0,-0.6,73.08,84.2,4.59
177,kavieng,68.0,PG,1535607924.0,100.0,-2.57,150.8,79.43,2.01
178,yuzhou,90.0,CN,1535605200.0,51.0,34.16,113.47,84.2,11.18
179,kapiri mposhi,0.0,ZM,1535607924.0,56.0,-13.97,28.68,59.36,10.74
180,chambersburg,1.0,US,1535605500.0,67.0,39.94,-77.66,82.04,8.05
181,lima,12.0,PE,1535607925.0,78.0,-12.06,-77.04,53.87,2.35
182,sovetsk,64.0,RU,1535607925.0,90.0,55.08,21.89,60.98,4.59
183,talcahuano,0.0,CL,1535605200.0,93.0,-36.72,-73.12,51.8,2.24
184,nahariyya,75.0,IL,1535604600.0,69.0,33.01,35.09,82.4,8.05
186,bagan,68.0,RU,1535607926.0,82.0,54.1,77.67,62.6,6.04
187,ketchikan,90.0,US,1535604960.0,90.0,55.34,-131.65,55.94,4.7
189,mar del plata,0.0,AR,1535607631.0,72.0,-46.43,-67.52,36.95,10.63
190,souillac,0.0,FR,1535605200.0,93.0,45.6,-0.6,53.6,2.68
191,okhotsk,0.0,RU,1535607927.0,86.0,59.36,143.24,59.45,7.38
193,chapais,90.0,CA,1535605200.0,93.0,49.78,-74.86,44.6,6.93
194,mokobeng,0.0,BW,1535607928.0,71.0,-23.0,27.67,54.05,3.47
196,mandalgovi,48.0,MN,1535607929.0,77.0,45.76,106.27,71.24,6.04
197,indianola,12.0,US,1535607929.0,81.0,40.24,-100.42,68.81,12.41
198,drochia,8.0,MD,1535607842.0,84.0,48.03,27.81,64.49,4.7
199,barrow,80.0,AR,1535607929.0,90.0,-38.31,-60.23,44.96,10.74
200,praia da vitoria,20.0,PT,1535605200.0,88.0,38.73,-27.07,73.4,15.77
201,blagoyevo,0.0,RU,1535607930.0,67.0,63.37,47.92,57.92,3.47
202,jalu,12.0,LY,1535607930.0,56.0,29.03,21.55,80.78,3.69
203,bilgi,0.0,TR,1535604600.0,38.0,38.1,43.26,75.2,3.47
204,codrington,0.0,AU,1535607931.0,58.0,-28.95,153.24,63.05,2.68
205,tanhacu,100.0,BR,1535607931.0,99.0,-14.02,-41.25,62.42,3.69
206,esperance,20.0,TT,1535605200.0,100.0,10.24,-61.45,77.0,3.36
207,mount gambier,92.0,AU,1535607695.0,70.0,-37.83,140.78,56.48,13.98
208,puerto ayora,68.0,EC,1535607932.0,100.0,-0.74,-90.35,69.53,10.18
209,kathu,0.0,ZA,1535607932.0,61.0,-27.7,23.05,46.22,8.39
210,dumai,68.0,ID,1535607932.0,81.0,1.68,101.45,84.47,1.9
211,alice,75.0,US,1535606100.0,81.0,27.75,-98.07,82.94,6.93
212,dwarka,75.0,IN,1535605200.0,79.0,28.58,77.04,87.8,5.82
213,chulym,56.0,RU,1535607933.0,91.0,55.09,80.97,61.61,4.59
214,butaritari,80.0,KI,1535607934.0,100.0,3.07,172.79,85.37,3.36
216,itarema,0.0,BR,1535607934.0,85.0,-2.92,-39.92,76.28,14.76
217,acquaviva,0.0,IT,1535604900.0,77.0,43.95,12.42,62.6,2.24
218,norman wells,20.0,CA,1535605200.0,100.0,65.28,-126.83,35.6,2.24
219,fairbanks,1.0,US,1535605080.0,78.0,64.84,-147.72,51.98,4.7
220,ostrovnoy,0.0,RU,1535607935.0,79.0,68.05,39.51,55.22,13.53
221,pisco,90.0,PE,1535605200.0,82.0,-13.71,-76.2,62.6,6.93
223,meulaboh,8.0,ID,1535607936.0,99.0,4.14,96.13,83.39,6.38
224,dengzhou,32.0,CN,1535607936.0,77.0,32.69,112.08,87.44,14.65
225,stavyshche,0.0,UA,1535607937.0,89.0,50.78,28.48,61.97,4.47
226,cherskiy,44.0,RU,1535607937.0,63.0,68.75,161.3,54.5,3.69
227,lopsmarka,75.0,NO,1535604600.0,93.0,67.31,14.45,53.6,14.99
228,eyl,12.0,SO,1535607938.0,66.0,7.98,49.82,80.06,20.13
229,tuktoyaktuk,75.0,CA,1535605200.0,87.0,69.44,-133.03,44.6,9.17
230,buala,64.0,SB,1535607938.0,83.0,-8.15,159.59,84.2,6.93
231,berdigestyakh,64.0,RU,1535607938.0,70.0,62.1,126.7,65.3,5.59
232,ahipara,12.0,NZ,1535607939.0,91.0,-35.17,173.16,55.76,8.95
233,zaysan,0.0,KZ,1535607939.0,65.0,47.47,84.87,65.66,2.57
234,payakumbuh,44.0,ID,1535607939.0,83.0,-0.23,100.63,79.97,3.13
235,yantzaza,88.0,EC,1535607940.0,76.0,-3.83,-78.76,64.67,2.35
237,hambantota,24.0,LK,1535607940.0,91.0,6.12,81.12,82.22,15.77
239,morondava,0.0,MG,1535607941.0,61.0,-20.3,44.28,81.86,8.39
240,san quintin,75.0,PH,1535605200.0,66.0,17.54,120.52,87.8,6.93
241,vanimo,64.0,PG,1535607941.0,100.0,-2.67,141.3,76.37,6.15
243,kawalu,0.0,ID,1535607942.0,61.0,-7.38,108.21,79.97,2.57
245,nemencine,90.0,LT,1535604600.0,100.0,54.85,25.48,50.0,3.36
247,upernavik,80.0,GL,1535607943.0,100.0,72.79,-56.15,36.5,19.57
248,ullapool,68.0,GB,1535607943.0,100.0,57.9,-5.16,53.24,13.65
249,naro moru,8.0,KE,1535607943.0,98.0,-0.17,37.02,54.05,4.47
250,cap malheureux,75.0,MU,1535605200.0,64.0,-19.98,57.61,73.4,10.29
251,mangan,92.0,IN,1535607944.0,98.0,27.5,88.54,49.46,1.68
252,te anau,68.0,NZ,1535607944.0,85.0,-45.41,167.72,45.95,2.57
253,tuy hoa,36.0,VN,1535607944.0,72.0,13.08,109.3,88.16,13.09
255,kendari,32.0,ID,1535607945.0,54.0,-3.99,122.52,87.8,4.47
256,coquimbo,90.0,CL,1535605200.0,87.0,-29.95,-71.34,51.8,6.93
257,khatanga,48.0,RU,1535607945.0,69.0,71.98,102.47,52.07,15.66
258,jumla,76.0,NP,1535607946.0,96.0,29.28,82.18,50.72,1.45
259,nalbari,75.0,IN,1535607000.0,75.0,26.45,91.44,89.6,5.82
260,christchurch,0.0,NZ,1535607000.0,54.0,-43.53,172.64,55.4,5.82
261,rawlins,1.0,US,1535605800.0,4.0,41.79,-107.24,66.02,11.41
262,puerto ayacucho,64.0,CO,1535607947.0,98.0,5.66,-67.63,71.42,2.13
264,kutum,0.0,SD,1535607947.0,31.0,14.2,24.66,79.52,4.59
265,vanavara,32.0,RU,1535607948.0,57.0,60.35,102.28,67.19,8.05
266,salisbury,44.0,GB,1535604600.0,87.0,51.07,-1.8,51.8,6.93
267,shabqadar,0.0,PK,1535607000.0,63.0,34.21,71.56,91.4,11.41
269,margate,0.0,AU,1535607000.0,41.0,-43.03,147.26,59.0,9.17
270,grindavik,75.0,IS,1535607000.0,80.0,63.84,-22.43,41.0,9.17
271,solnechnyy,100.0,RU,1535607949.0,100.0,50.72,136.64,57.65,8.61
272,maxixe,12.0,MZ,1535607949.0,90.0,-23.86,35.35,70.07,7.94
275,saint-pierre,90.0,FR,1535605200.0,87.0,48.95,4.24,59.0,8.05
276,vangazi,0.0,UZ,1535605200.0,27.0,40.03,64.76,77.0,23.04
277,viedma,48.0,AR,1535607951.0,82.0,-40.81,-62.99,37.58,2.57
278,cheremshanka,0.0,UA,1535607951.0,96.0,51.44,24.5,59.09,4.59
279,bonthe,92.0,SL,1535607952.0,100.0,7.53,-12.5,73.13,2.01
280,galveston,40.0,US,1535605560.0,93.0,40.58,-86.19,68.0,6.93
281,moussoro,0.0,TD,1535607952.0,81.0,13.64,16.49,80.42,6.6
283,presidencia roque saenz pena,12.0,AR,1535607953.0,86.0,-26.79,-60.44,69.53,10.63
284,bilma,56.0,NE,1535607953.0,40.0,18.69,12.92,83.93,12.97
285,debre birhan,92.0,ET,1535607953.0,96.0,9.68,39.53,57.02,2.46
286,mutis,88.0,CO,1535607954.0,100.0,6.23,-77.4,77.45,5.14
287,atar,44.0,MR,1535607954.0,52.0,20.52,-13.05,81.23,0.45
289,hay river,75.0,CA,1535605200.0,81.0,60.82,-115.79,53.6,4.7
291,kaka,0.0,TM,1535607955.0,32.0,37.35,59.62,73.76,4.59
292,puerto del rosario,40.0,ES,1535605200.0,78.0,28.5,-13.86,71.6,21.92
293,nouakchott,8.0,MR,1535607956.0,100.0,18.08,-15.98,78.8,7.72
296,neka,0.0,IR,1535605200.0,69.0,36.65,53.3,82.4,6.93
297,lukulu,0.0,ZM,1535607956.0,52.0,-14.38,23.24,63.86,15.21
298,manacapuru,0.0,BR,1535607957.0,93.0,-3.3,-60.62,74.93,1.57
299,dunda,88.0,IN,1535607957.0,100.0,30.62,78.32,63.86,1.9
300,lopatyn,0.0,UA,1535607957.0,92.0,50.22,24.84,59.09,4.47
301,shingu,40.0,JP,1535605200.0,83.0,33.72,135.99,84.2,9.17
302,sal rei,75.0,CV,1535605200.0,78.0,16.18,-22.92,78.8,10.29
303,xinxiang,76.0,CN,1535607958.0,61.0,35.3,113.88,81.5,14.2
304,beaver falls,75.0,US,1535606160.0,87.0,44.58,-95.05,62.6,6.93
305,san isidro,64.0,PH,1535607960.0,95.0,16.74,121.63,84.29,4.03
306,lorengau,76.0,PG,1535607961.0,100.0,-2.02,147.27,81.95,3.91
307,itoman,20.0,JP,1535607000.0,66.0,26.12,127.67,87.8,9.17
308,celestun,0.0,MX,1535607961.0,100.0,20.87,-90.4,82.67,16.44
309,kirakira,32.0,SB,1535607962.0,100.0,-10.46,161.92,82.31,13.09
310,kungurtug,32.0,RU,1535607962.0,73.0,50.6,97.53,59.54,3.02
312,ekhabi,100.0,RU,1535607962.0,100.0,53.51,142.97,56.03,20.24
313,kyshtovka,0.0,RU,1535607963.0,84.0,56.56,76.62,64.31,5.93
315,hervey bay,0.0,AU,1535607963.0,79.0,-25.3,152.85,69.44,3.58
316,otradnoye,90.0,RU,1535605200.0,100.0,59.77,30.8,59.0,6.71
317,inhambane,12.0,MZ,1535607964.0,90.0,-23.87,35.38,70.07,7.94
318,supaul,88.0,IN,1535607964.0,82.0,26.12,86.6,84.92,11.07
319,nuuk,92.0,GL,1535604600.0,93.0,64.17,-51.74,41.0,4.7
320,makakilo city,1.0,US,1535605020.0,62.0,21.35,-158.09,80.06,8.05
321,chuy,100.0,UY,1535607921.0,93.0,-33.69,-53.46,62.6,11.18
322,dawlatabad,0.0,AF,1535607965.0,28.0,36.41,64.91,79.88,5.93
323,fort walton beach,90.0,US,1535607480.0,83.0,30.41,-86.62,78.08,4.7
324,bima,92.0,ID,1535607966.0,78.0,-8.45,118.73,82.4,1.45
325,juneau,40.0,US,1535604960.0,93.0,58.3,-134.42,55.94,1.9
326,at-bashi,0.0,KG,1535607966.0,43.0,41.17,75.81,56.84,4.36
327,lethem,0.0,GY,1535607966.0,90.0,3.38,-59.8,72.86,5.93
328,killybegs,32.0,IE,1535607967.0,100.0,54.63,-8.45,52.43,6.6
329,saint-georges,64.0,CA,1535607967.0,92.0,46.12,-70.67,66.83,7.16
330,sao filipe,88.0,CV,1535607968.0,100.0,14.9,-24.5,77.99,11.52
331,abbeville,68.0,FR,1535605200.0,100.0,50.11,1.83,53.6,2.24
332,omboue,88.0,GA,1535607968.0,100.0,-1.57,9.26,75.74,10.4
333,nioro,100.0,GM,1535607969.0,100.0,13.79,-15.05,71.69,4.36
334,senneterre,75.0,CA,1535605200.0,87.0,48.39,-77.24,46.4,9.17
335,shellbrook,90.0,CA,1535605200.0,63.0,53.22,-106.39,62.6,5.82
338,kasongo-lunda,0.0,CD,1535607970.0,91.0,-6.48,16.82,65.93,2.13
339,fortuna,20.0,ES,1535605200.0,78.0,38.18,-1.13,78.8,1.12
340,sisimiut,80.0,GL,1535607970.0,100.0,66.94,-53.67,32.54,1.68
341,nieuwpoort,75.0,BE,1535606700.0,76.0,51.13,2.75,59.0,4.7
342,ouadda,92.0,CF,1535607971.0,100.0,8.07,22.4,67.64,6.49
343,mackay,90.0,CA,1535606880.0,100.0,53.65,-115.58,46.4,5.82
344,ibra,8.0,OM,1535607972.0,58.0,22.69,58.55,84.38,3.58
345,deputatskiy,0.0,RU,1535607972.0,62.0,69.3,139.9,61.7,9.4
346,sechura,0.0,PE,1535607972.0,92.0,-5.56,-80.82,63.68,6.15
347,bahia blanca,36.0,AR,1535607901.0,87.0,-38.72,-62.27,45.5,11.07
350,severo-kurilsk,88.0,RU,1535607973.0,88.0,50.68,156.12,53.96,3.69
351,hasaki,75.0,JP,1535605200.0,55.0,35.73,140.83,91.4,11.41
352,bratslav,0.0,UA,1535607974.0,84.0,48.83,28.94,63.68,5.14
353,klaksvik,36.0,FO,1535604600.0,93.0,62.23,-6.59,48.2,1.12
354,broken hill,68.0,AU,1535607974.0,31.0,-31.97,141.45,67.19,23.6
355,del rio,1.0,US,1535604960.0,46.0,29.36,-100.9,87.98,11.41
356,oxelosund,0.0,SE,1535604600.0,93.0,58.67,17.1,59.0,4.7
358,sarkand,80.0,KZ,1535607975.0,44.0,45.41,79.91,70.88,6.15
359,reconquista,0.0,AR,1535607975.0,91.0,-29.14,-59.64,66.92,15.66
360,biga,40.0,TR,1535604600.0,78.0,40.23,27.24,75.2,5.82
361,pagudpud,75.0,PH,1535605200.0,66.0,18.56,120.79,87.8,6.93
362,harindanga,75.0,IN,1535607000.0,75.0,22.04,88.32,89.6,5.82
363,wageningen,24.0,NL,1535606400.0,100.0,51.98,5.66,57.2,4.7
364,nanortalik,92.0,GL,1535607977.0,98.0,60.14,-45.24,41.0,13.53
368,conceicao do araguaia,76.0,BR,1535607978.0,36.0,-8.26,-49.26,82.49,9.51
369,karpinsk,8.0,RU,1535607978.0,69.0,59.76,60.01,56.3,8.39
370,mbeya,0.0,TZ,1535607978.0,59.0,-8.91,33.47,61.16,5.48
371,vigrestad,20.0,NO,1535604600.0,100.0,58.57,5.7,46.4,1.12
372,baculin,68.0,PH,1535607979.0,100.0,7.45,126.58,78.35,1.34
373,belyy yar,40.0,RU,1535605200.0,72.0,53.6,91.39,68.0,6.71
374,kitgum,76.0,UG,1535607979.0,99.0,3.3,32.88,65.66,3.91
375,port blair,92.0,IN,1535607980.0,100.0,11.67,92.75,76.64,12.64
376,pavlodar,40.0,KZ,1535605200.0,63.0,52.28,76.96,66.2,15.66
377,turinsk,92.0,RU,1535607980.0,92.0,58.04,63.7,58.82,9.06
378,kieta,44.0,PG,1535607981.0,100.0,-6.22,155.63,77.99,2.13
379,matay,0.0,EG,1535607981.0,57.0,28.42,30.79,81.86,9.51
380,kharan,0.0,PK,1535607981.0,18.0,28.58,65.42,89.24,2.46
381,luena,0.0,AO,1535607982.0,41.0,-11.78,19.91,61.79,6.71
382,college,1.0,US,1535605080.0,78.0,64.86,-147.8,51.98,4.7
383,bataipora,0.0,BR,1535607982.0,61.0,-22.3,-53.27,66.11,9.62
384,teya,75.0,MX,1535604300.0,78.0,21.05,-89.07,78.8,6.93
385,dutlwe,0.0,BW,1535607983.0,66.0,-23.98,23.93,51.44,14.65
388,umm kaddadah,0.0,SD,1535607983.0,62.0,13.6,26.69,78.8,4.7
389,karratha,0.0,AU,1535607984.0,22.0,-20.74,116.85,77.18,13.76
390,yaounde,75.0,CM,1535605200.0,100.0,3.87,11.52,69.8,3.47
391,vila velha,75.0,BR,1535605200.0,74.0,-3.71,-38.6,78.8,18.34
392,road town,1.0,VG,1535604780.0,77.0,18.42,-64.62,82.94,14.99
393,chernyshevskiy,92.0,RU,1535607985.0,98.0,63.01,112.47,58.37,4.03
394,inuvik,40.0,CA,1535605200.0,61.0,68.36,-133.71,46.4,3.36
395,san jeronimo,0.0,PE,1535607985.0,85.0,-13.65,-73.37,26.15,1.9
396,bacolod,44.0,PH,1535607986.0,80.0,10.68,122.95,82.49,4.47
397,kurmanayevka,0.0,RU,1535607986.0,36.0,52.51,52.07,77.36,5.93
398,kenitra,75.0,MA,1535605200.0,77.0,34.26,-6.57,68.0,2.46
399,bubaque,92.0,GW,1535607986.0,100.0,11.28,-15.83,74.84,25.5
400,sinop,75.0,TR,1535604600.0,78.0,42.03,35.15,73.4,9.17
401,haverfordwest,88.0,GB,1535604600.0,93.0,51.8,-4.97,42.8,5.82
402,frontignan,0.0,FR,1535605200.0,67.0,43.45,3.75,64.4,2.24
403,westport,75.0,IE,1535605200.0,93.0,53.8,-9.52,48.2,3.36
404,kahului,40.0,US,1535604960.0,69.0,20.89,-156.47,78.98,11.41
405,tasiilaq,92.0,GL,1535604600.0,75.0,65.61,-37.64,42.8,29.97
406,novyy urengoy,68.0,RU,1535607988.0,93.0,66.08,76.63,46.31,16.55
408,roros,75.0,NO,1535604600.0,100.0,62.57,11.38,46.4,10.29
409,tiksi,100.0,RU,1535607989.0,72.0,71.64,128.87,58.82,20.8
410,salinopolis,0.0,BR,1535607990.0,99.0,-0.61,-47.36,79.7,10.74
411,oum hadjer,0.0,TD,1535607990.0,82.0,13.3,19.7,75.56,8.05
412,leningradskiy,92.0,RU,1535607990.0,94.0,69.38,178.42,39.92,4.92
413,maraa,56.0,BR,1535607990.0,95.0,-1.83,-65.37,72.59,3.13
414,manoel urbano,24.0,BR,1535607991.0,84.0,-8.84,-69.26,75.47,1.9
415,rocha,92.0,UY,1535607991.0,98.0,-34.48,-54.34,62.33,7.05
416,tucurui,8.0,BR,1535607991.0,89.0,-3.77,-49.67,73.76,2.46
417,tame,80.0,CO,1535607992.0,99.0,6.46,-71.72,58.01,1.45
418,baykit,88.0,RU,1535607992.0,98.0,61.68,96.39,52.52,4.47
419,marzuq,36.0,YE,1535607992.0,38.0,14.4,46.47,81.86,5.37
420,healesville,75.0,AU,1535607000.0,53.0,-37.65,145.52,50.0,12.75
421,rio gallegos,0.0,AR,1535605200.0,86.0,-51.62,-69.22,33.8,18.34
422,mana,0.0,RS,1535605200.0,100.0,43.52,20.24,59.0,1.12
423,waipawa,92.0,NZ,1535607993.0,96.0,-39.94,176.59,51.44,2.91
424,bonfim,0.0,BR,1535605200.0,100.0,-20.33,-44.24,59.0,4.7
425,tessalit,80.0,ML,1535607994.0,63.0,20.2,1.01,80.69,10.07
426,plettenberg bay,0.0,ZA,1535607994.0,98.0,-34.05,23.37,58.1,8.16
427,kade,92.0,GH,1535607995.0,95.0,6.1,-0.84,70.25,2.91
428,ugoofaaru,92.0,MV,1535607995.0,100.0,5.67,73.0,80.87,12.41
430,lata,88.0,IN,1535607995.0,100.0,30.78,78.62,63.86,1.9
431,cedar city,1.0,US,1535604780.0,25.0,37.68,-113.06,69.08,3.91
432,cumpas,76.0,MX,1535607996.0,91.0,30.0,-109.78,68.45,1.9
433,khani,40.0,GE,1535607000.0,69.0,41.96,42.96,80.6,8.05
434,asmar,0.0,AF,1535607997.0,25.0,35.03,71.36,84.92,2.46
435,haverhill,90.0,GB,1535607360.0,100.0,52.08,0.44,51.8,3.36
436,la ronge,90.0,CA,1535605200.0,100.0,55.1,-105.3,57.2,2.24
437,kurilsk,80.0,RU,1535607997.0,93.0,45.23,147.88,57.47,8.95
438,talnakh,48.0,RU,1535607998.0,85.0,69.49,88.39,42.08,19.69
439,poum,0.0,MK,1535605200.0,87.0,41.28,20.71,57.2,3.36
440,keti bandar,56.0,PK,1535607998.0,97.0,24.14,67.45,79.88,19.13
441,haukipudas,0.0,FI,1535606400.0,76.0,65.17,25.5,53.6,9.17
443,kirkwall,40.0,GB,1535606400.0,100.0,58.98,-2.96,50.0,6.93
444,atasu,24.0,KZ,1535607999.0,84.0,48.68,71.64,60.8,12.41
445,chihuahua,32.0,MX,1535607847.0,76.0,28.66,-106.08,62.42,3.02
446,kulu,64.0,CD,1535608000.0,96.0,3.47,23.69,72.95,2.91
447,nantucket,1.0,US,1535606100.0,100.0,41.28,-70.1,77.0,10.29
448,shimoda,40.0,JP,1535605200.0,70.0,34.7,138.93,86.0,20.8
449,hofn,92.0,IS,1535608001.0,100.0,64.25,-15.21,42.35,2.91
450,high level,90.0,CA,1535605200.0,93.0,58.52,-117.13,51.8,4.7
451,labytnangi,44.0,RU,1535608001.0,71.0,66.66,66.39,50.54,6.93
452,barraute,75.0,CA,1535605200.0,87.0,48.43,-77.63,46.4,9.17
453,schwechat,0.0,AT,1535605200.0,72.0,48.14,16.48,66.2,5.82
454,la plata,75.0,AR,1535605200.0,87.0,-34.92,-57.95,66.2,3.36
455,port macquarie,0.0,AU,1535605200.0,48.0,-31.43,152.91,60.8,11.41
456,sawtell,0.0,AU,1535607000.0,31.0,-30.38,153.1,64.4,8.05
457,rundu,0.0,NA,1535608003.0,38.0,-17.91,19.77,59.0,7.05
458,shakawe,36.0,BW,1535608003.0,40.0,-18.36,21.84,63.41,10.07
459,general higinio morinigo,0.0,PY,1535608004.0,52.0,-25.95,-55.92,76.1,7.05
460,gamba,48.0,CN,1535608004.0,91.0,28.28,88.52,43.79,2.13
462,adrar,0.0,DZ,1535605200.0,22.0,27.87,-0.29,86.0,14.99
463,linjiang,88.0,CN,1535608005.0,85.0,41.81,126.91,65.12,5.7
464,tatarskaya kargala,0.0,RU,1535605200.0,52.0,51.95,55.17,68.0,2.24
465,vostok,92.0,RU,1535608005.0,82.0,46.45,135.83,66.2,2.01
467,high prairie,24.0,CA,1535608006.0,68.0,55.43,-116.48,52.34,6.93
468,ituporanga,92.0,BR,1535608006.0,95.0,-27.41,-49.6,53.96,3.36
469,nefteyugansk,75.0,RU,1535605200.0,100.0,61.09,72.61,50.0,11.18
470,carballo,20.0,ES,1535605200.0,100.0,43.21,-8.69,55.4,4.7
471,longyan,92.0,CN,1535608007.0,91.0,25.1,117.03,74.39,2.46
472,manyana,0.0,AU,1535605200.0,41.0,-35.26,150.51,59.0,10.29
473,batagay,0.0,RU,1535608007.0,64.0,67.65,134.64,64.94,9.17
474,yumen,80.0,CN,1535608008.0,61.0,40.29,97.04,74.3,3.13
478,olinda,40.0,EC,1535605200.0,83.0,-2.03,-79.75,69.8,12.75
479,helong,80.0,CN,1535608009.0,76.0,25.94,116.13,79.61,6.04
480,shirokiy,8.0,RU,1535608009.0,29.0,53.87,39.17,76.19,8.95
481,sieradz,0.0,PL,1535605200.0,82.0,51.6,18.74,55.4,3.36
482,revyakino,32.0,RU,1535608010.0,32.0,54.37,37.66,75.56,5.37
483,iqaluit,75.0,CA,1535605200.0,80.0,63.75,-68.52,41.0,16.11
484,kudahuvadhoo,64.0,MV,1535608010.0,100.0,2.67,72.89,83.12,9.51
485,bridlington,0.0,GB,1535606400.0,87.0,54.08,-0.19,46.4,4.7
486,gisborne,92.0,NZ,1535608011.0,98.0,-38.66,178.02,55.22,21.59
487,alofi,76.0,NU,1535605200.0,69.0,-19.06,-169.92,73.4,12.75
488,port hedland,0.0,AU,1535607000.0,19.0,-20.31,118.58,78.8,9.17
489,evensk,8.0,RU,1535608012.0,83.0,61.92,159.24,56.21,8.72
490,yaan,92.0,NG,1535608012.0,99.0,7.38,8.57,71.78,6.04
491,marand,0.0,IR,1535605200.0,31.0,38.43,45.77,77.0,16.11
492,santa maria,8.0,BR,1535607880.0,69.0,-29.69,-53.81,67.19,14.2
493,coxim,64.0,BR,1535608014.0,68.0,-18.5,-54.75,72.14,3.47
494,beringovskiy,44.0,RU,1535608014.0,100.0,63.05,179.32,48.92,24.05
495,zabaykalsk,0.0,CN,1535608014.0,45.0,49.64,117.33,74.12,4.14
496,arlit,0.0,NE,1535608014.0,90.0,18.74,7.39,73.94,3.69
497,ranong,75.0,TH,1535605200.0,74.0,9.96,98.62,86.0,10.29
498,santa cruz,1.0,US,1535607300.0,82.0,36.97,-122.03,66.2,2.13
499,aitape,92.0,PG,1535608016.0,100.0,-3.15,142.36,74.57,4.7
500,saint-joseph,0.0,FR,1535605440.0,88.0,43.56,6.97,69.8,4.7
501,katsuura,40.0,JP,1535605200.0,59.0,33.93,134.5,93.2,9.17
502,pangody,48.0,RU,1535608017.0,71.0,65.85,74.49,48.47,16.22
503,ilulissat,64.0,GL,1535604600.0,64.0,69.22,-51.1,35.6,4.7
504,afrikanda,0.0,RU,1535608018.0,74.0,67.44,32.78,55.94,4.03
505,tonstad,20.0,NO,1535604600.0,100.0,58.66,6.71,46.4,1.12
506,saldanha,0.0,PT,1535608018.0,92.0,41.42,-6.55,54.5,6.04
507,bukachacha,0.0,RU,1535608019.0,58.0,52.99,116.91,71.42,3.58
508,dukat,0.0,RS,1535608019.0,84.0,42.44,22.31,63.77,2.91
510,isangel,88.0,VU,1535608019.0,100.0,-19.55,169.27,72.32,13.98
511,wattegama,100.0,LK,1535608020.0,91.0,7.35,80.68,74.84,6.04
512,chapleau,0.0,CA,1535608020.0,95.0,47.85,-83.4,39.56,2.13
513,quatre cocos,75.0,MU,1535605200.0,64.0,-20.21,57.76,73.4,10.29
514,santa rosa,88.0,AR,1535608022.0,62.0,-36.62,-64.29,50.27,13.76
515,wanning,75.0,AT,1535604600.0,82.0,48.64,13.53,64.4,3.36
516,cajnice,0.0,BA,1535605200.0,82.0,43.56,19.07,59.0,1.12
517,batemans bay,32.0,AU,1535608023.0,74.0,-35.71,150.18,56.48,5.03
518,montijo,0.0,PT,1535605200.0,77.0,38.71,-8.97,64.4,8.05
520,namtsy,36.0,RU,1535608024.0,81.0,62.72,129.66,61.25,3.58
521,shieli,0.0,KZ,1535608024.0,46.0,44.18,66.74,70.97,12.19
522,ulladulla,0.0,AU,1535605200.0,41.0,-35.36,150.48,59.0,10.29
523,ahuimanu,40.0,US,1535605020.0,87.0,21.44,-157.84,80.06,10.29
524,tarangnan,56.0,PH,1535608025.0,100.0,11.9,124.75,77.36,4.59
525,totma,88.0,RU,1535608025.0,87.0,59.98,42.76,62.15,12.08
526,lagoa,0.0,PT,1535605200.0,64.0,37.14,-8.45,68.0,3.36
527,fereydunshahr,0.0,IR,1535608026.0,18.0,32.94,50.12,79.97,3.02
528,noshiro,75.0,JP,1535605200.0,94.0,40.21,140.05,73.4,9.17
529,riorges,0.0,FR,1535605200.0,87.0,46.04,4.03,57.2,4.14
530,whitehorse,20.0,CA,1535605200.0,71.0,60.72,-135.06,50.0,4.7
531,kolyshley,48.0,RU,1535608027.0,29.0,52.7,44.54,75.47,10.07
533,raseiniai,0.0,LT,1535604600.0,100.0,55.38,23.12,53.6,3.36
534,pangnirtung,12.0,CA,1535608028.0,93.0,66.15,-65.72,36.77,11.07
535,harper,1.0,US,1535606100.0,72.0,30.3,-99.24,84.02,5.82
536,anchorage,75.0,US,1535604960.0,74.0,61.22,-149.89,59.0,0.67
537,laukaa,75.0,FI,1535606400.0,93.0,62.42,25.95,53.6,2.24
539,shambu,76.0,ET,1535608029.0,100.0,9.57,37.1,59.72,2.46
540,dingle,68.0,PH,1535608029.0,94.0,11.0,122.67,79.52,4.14
541,kiama,0.0,AU,1535605200.0,41.0,-34.67,150.86,59.0,10.29
542,kaohsiung,90.0,TW,1535607000.0,94.0,22.62,120.31,77.0,4.7
543,wabana,20.0,CA,1535605200.0,87.0,47.63,-52.95,50.0,6.93
544,kuching,75.0,MY,1535607000.0,55.0,1.56,110.34,91.4,4.7
545,nizip,0.0,TR,1535604600.0,38.0,37.01,37.79,77.0,4.03
546,frejlev,100.0,DK,1535608031.0,100.0,57.01,9.82,58.64,7.38
547,puerto escondido,44.0,MX,1535608031.0,100.0,15.86,-97.07,86.0,6.15
548,les cayes,0.0,HT,1535608031.0,100.0,18.19,-73.75,80.96,5.48
549,santander,40.0,PH,1535605200.0,62.0,9.42,123.33,89.6,6.93
550,aksu,40.0,KZ,1535605200.0,63.0,52.04,76.93,66.2,15.66
552,tungor,100.0,RU,1535608033.0,100.0,53.39,142.95,56.03,20.24
554,muisne,48.0,EC,1535608033.0,94.0,0.61,-80.02,69.89,5.37
555,yerbogachen,36.0,RU,1535608033.0,75.0,61.28,108.01,65.57,6.15
556,fort-shevchenko,0.0,KZ,1535608034.0,70.0,44.51,50.26,76.19,21.7
557,vila franca do campo,75.0,PT,1535605200.0,83.0,37.72,-25.43,73.4,9.17
558,sorland,75.0,NO,1535604600.0,93.0,67.67,12.69,53.6,16.11
559,jinhua,48.0,CN,1535608035.0,54.0,29.11,119.65,91.58,3.13
560,cervo,12.0,BR,1535608035.0,89.0,-22.19,-46.24,50.36,4.47
561,makat,8.0,KZ,1535608035.0,34.0,47.65,53.35,80.33,10.74
562,bianzhuang,100.0,CN,1535608035.0,100.0,39.44,112.12,59.45,4.7
564,paragominas,0.0,BR,1535608036.0,94.0,-3.0,-47.35,71.69,4.59
566,maningrida,0.0,AU,1535608036.0,62.0,-12.05,134.23,82.4,10.63
568,half moon bay,90.0,US,1535607600.0,93.0,37.46,-122.43,66.2,6.93
569,aklavik,40.0,CA,1535605200.0,61.0,68.22,-135.01,46.4,3.36
570,namibe,68.0,AO,1535608037.0,99.0,-15.19,12.15,65.66,5.7
571,mount isa,0.0,AU,1535607000.0,15.0,-20.73,139.49,91.4,17.22
572,teguldet,80.0,RU,1535608038.0,77.0,57.31,88.17,60.44,4.36
573,anna paulowna,40.0,NL,1535606940.0,72.0,52.86,4.83,60.8,11.41
574,chinsali,0.0,ZM,1535608038.0,67.0,-10.55,32.07,61.7,12.19
575,dubbo,44.0,AU,1535607000.0,10.0,-32.25,148.6,66.2,4.7
576,hailey,5.0,US,1535604480.0,31.0,43.52,-114.32,60.8,9.17
577,ukiah,1.0,US,1535604960.0,62.0,39.15,-123.21,62.96,2.13
578,argudan,24.0,RU,1535605200.0,82.0,43.41,43.9,68.0,2.24
579,kandrian,92.0,PG,1535608040.0,85.0,-6.21,149.55,79.52,3.91
580,lamar,1.0,US,1535604780.0,72.0,38.09,-102.62,68.0,9.17
581,shizunai,88.0,JP,1535608040.0,93.0,42.33,142.37,67.1,9.51
583,lovozero,20.0,RU,1535608041.0,89.0,68.01,35.02,50.9,3.91
584,kinlochleven,92.0,GB,1535608041.0,100.0,56.71,-4.97,45.95,3.36
585,beyneu,0.0,KZ,1535608041.0,35.0,45.32,55.19,78.44,10.51
586,spokane,1.0,US,1535605080.0,40.0,47.66,-117.42,71.06,11.52
588,hazorasp,0.0,UZ,1535605200.0,40.0,41.32,61.08,71.6,11.41
589,son la,92.0,VN,1535608042.0,99.0,21.32,103.9,71.87,0.67
590,kiomboi,0.0,TZ,1535608043.0,56.0,-4.28,34.41,69.26,7.16
593,redcar,0.0,GB,1535606400.0,93.0,54.62,-1.06,46.4,8.05
594,grand forks,1.0,US,1535606100.0,82.0,47.91,-97.06,59.18,11.41
595,kibala,20.0,TD,1535605200.0,83.0,9.11,18.35,75.2,9.17
596,kuytun,8.0,RU,1535608044.0,67.0,54.34,101.51,66.47,3.91
597,tecoanapa,90.0,MX,1535605380.0,88.0,16.99,-99.26,80.6,11.41
598,amahai,76.0,ID,1535608045.0,100.0,-3.31,129.0,78.62,7.94
599,sumkino,92.0,RU,1535608045.0,100.0,58.11,68.32,59.63,7.49
600,najran,40.0,SA,1535605200.0,19.0,17.54,44.22,91.4,4.03
601,nyuksenitsa,48.0,RU,1535608046.0,78.0,60.41,44.24,62.69,13.53
602,chulman,0.0,RU,1535608046.0,61.0,56.84,124.9,67.01,3.47
603,xining,44.0,CN,1535608046.0,79.0,36.62,101.77,65.39,3.91
604,kushiro,75.0,JP,1535606520.0,93.0,43.11,144.15,62.6,8.05
606,kulhudhuffushi,20.0,MV,1535608047.0,100.0,6.62,73.07,80.06,12.41
607,srednekolymsk,20.0,RU,1535608047.0,56.0,67.46,153.71,58.28,3.13
608,iskateley,20.0,RU,1535608047.0,83.0,67.68,53.15,50.18,6.15
609,santo tomas,56.0,PH,1535608048.0,90.0,15.88,120.59,87.26,4.59
610,riyadh,0.0,SA,1535605200.0,17.0,24.63,46.72,93.2,5.82
611,lompoc,75.0,US,1535604960.0,89.0,34.64,-120.46,62.06,5.82
612,phalaborwa,0.0,ZA,1535605200.0,76.0,-23.95,31.14,55.4,2.24
613,manicore,32.0,BR,1535608049.0,92.0,-5.81,-61.3,74.12,2.01
614,el jicaro,92.0,GT,1535608049.0,99.0,14.91,-89.89,66.02,1.68
615,marshall,40.0,US,1535607300.0,100.0,39.39,-87.69,71.06,8.39
616,tehachapi,20.0,US,1535606400.0,25.0,35.13,-118.45,80.96,11.41
617,capaci,0.0,IT,1535604600.0,83.0,38.17,13.24,71.6,2.24
618,adra,76.0,IN,1535608050.0,92.0,23.5,86.68,86.09,4.14
